City,Lat,Lng,Max_Temp,Humidity,Cloudiness,Wind_Speed,Country,Date,Pressure
Sioux Lookout,50.1001,-91.917,-16.53,76.0,0.0,2.3,CA,1644029640.0,1026.0
Sterling,39.0062,-77.4286,33.71,78.0,100.0,1.99,US,1644029301.0,1020.0
Ushuaia,-54.8,-68.3,47.86,71.0,0.0,6.91,AR,1644029489.0,1015.0
Arraial do Cabo,-22.9661,-42.0278,75.81,87.0,100.0,22.39,BR,1644029644.0,1011.0
Alta Floresta,-9.8756,-56.0861,71.47,96.0,51.0,2.53,BR,1644029645.0,1012.0
Clyde River,70.4692,-68.5914,-12.77,77.0,0.0,14.97,CA,1644029647.0,994.0
Avarua,-21.2078,-159.775,82.45,78.0,40.0,12.66,CK,1644029648.0,1015.0
nizhneyansk,,,,,,,,,
Berlevåg,70.8578,29.0864,20.62,80.0,100.0,27.49,NO,1644029650.0,990.0
Marawi,7.9986,124.2928,80.82,54.0,70.0,5.57,PH,1644029652.0,1011.0
Laureles,26.1092,-97.4941,43.05,64.0,12.0,3.0,US,1644029653.0,1036.0
illoqqortoormiut,,,,,,,,,
Prince Rupert,54.3161,-130.3201,42.89,93.0,100.0,10.36,CA,1644029656.0,1019.0
Mataura,-46.1927,168.8643,59.49,37.0,7.0,4.9,NZ,1644029606.0,1013.0
Galveston,29.3669,-94.9669,33.42,80.0,60.0,17.83,US,1644029659.0,1036.0
Isangel,-19.55,169.2667,75.18,93.0,100.0,13.33,VU,1644029660.0,1001.0
Mahébourg,-20.4081,57.7,79.09,89.0,75.0,17.27,MU,1644029661.0,1009.0
Jamestown,42.097,-79.2353,17.28,51.0,100.0,3.44,US,1644029418.0,1019.0
Angoche,-16.2325,39.9086,73.35,93.0,100.0,6.58,MZ,1644029664.0,1008.0
Kapaa,22.0752,-159.319,78.12,59.0,38.0,1.99,US,1644029665.0,1016.0
Lindsay,36.203,-119.0882,54.01,55.0,0.0,4.61,US,1644029667.0,1028.0
Geraldton,-28.7667,114.6,109.81,8.0,0.0,14.97,AU,1644029668.0,1006.0
Bushehr,28.9684,50.8385,59.09,77.0,75.0,6.91,IR,1644029670.0,1009.0
Belmonte,-15.8631,-38.8828,79.3,88.0,100.0,8.28,BR,1644029671.0,1013.0
Mar del Plata,-38.0023,-57.5575,65.88,85.0,100.0,11.99,AR,1644029612.0,1008.0
Bredasdorp,-34.5322,20.0403,58.32,82.0,45.0,3.44,ZA,1644029674.0,1020.0
Lincoln,40.8,-96.667,18.46,36.0,0.0,3.0,US,1644029675.0,1032.0
Punta Arenas,-53.15,-70.9167,46.51,71.0,0.0,3.44,CL,1644029574.0,1017.0
grand river south east,,,,,,,,,
Gergebil',42.5047,47.0661,28.53,96.0,100.0,6.96,RU,1644029679.0,1008.0
Châteaudun,48.0833,1.3333,30.65,92.0,17.0,6.67,FR,1644029680.0,1025.0
Itarema,-2.9248,-39.9167,79.03,80.0,65.0,10.63,BR,1644029648.0,1011.0
Vaini,-21.2,-175.2,77.16,94.0,75.0,13.8,TO,1644029661.0,1010.0
Bluff,-46.6,168.3333,59.81,57.0,53.0,5.08,NZ,1644029642.0,1015.0
Noblesville,40.0456,-86.0086,16.61,83.0,100.0,1.01,US,1644029685.0,1011.0
Oranjemund,-28.55,16.4333,63.32,87.0,25.0,8.81,NA,1644029687.0,1012.0
Bubaque,11.2833,-15.8333,77.7,65.0,0.0,8.03,GW,1644029688.0,1010.0
Tiksi,71.6872,128.8694,-22.23,98.0,69.0,7.36,RU,1644029690.0,1023.0
Kruisfontein,-34.0033,24.7314,65.88,78.0,63.0,4.03,ZA,1644029691.0,1021.0
Tual,-5.6667,132.75,83.7,78.0,100.0,17.22,ID,1644029669.0,1008.0
Tura,25.5198,90.2201,57.74,85.0,31.0,2.26,IN,1644029694.0,1013.0
Shaoyang,27.2315,111.4525,46.02,62.0,18.0,5.32,CN,1644029695.0,1030.0
Namatanai,-3.6667,152.4333,85.62,66.0,85.0,8.93,PG,1644029696.0,1006.0
Grindavik,63.8424,-22.4338,27.07,63.0,100.0,21.85,IS,1644029698.0,981.0
Puerto Ayora,-0.7393,-90.3518,75.54,92.0,56.0,3.0,EC,1644029699.0,1013.0
tsihombe,,,,,,,,,
Stange,60.718,11.1942,22.62,95.0,98.0,2.26,NO,1644029702.0,989.0
attawapiskat,,,,,,,,,
Padang,-0.9492,100.3543,80.65,72.0,86.0,0.27,ID,1644029704.0,1011.0
sentyabrskiy,,,,,,,,,
rawannawi,,,,,,,,,
bolungarvik,,,,,,,,,
Teya,60.3778,92.6267,18.37,90.0,100.0,8.52,RU,1644029709.0,1022.0
Nikolskoye,59.7035,30.7861,17.38,88.0,100.0,12.44,RU,1644029711.0,1006.0
Yellowknife,62.456,-114.3525,-27.02,76.0,100.0,5.75,CA,1644029427.0,1027.0
umzimvubu,,,,,,,,,
Taltal,-25.4,-70.4833,68.14,72.0,0.0,4.7,CL,1644029714.0,1015.0
Mirzāpur,25.15,82.5833,53.56,63.0,0.0,5.23,IN,1644029716.0,1015.0
Guiratinga,-16.3494,-53.7583,72.1,91.0,84.0,2.01,BR,1644029717.0,1012.0
Saint-Philippe,-21.3585,55.7679,80.19,89.0,100.0,25.17,RE,1644029719.0,1009.0
Rikitea,-23.1203,-134.9692,79.07,68.0,4.0,8.14,PF,1644029566.0,1019.0
tawkar,,,,,,,,,
Faanui,-16.4833,-151.75,80.64,75.0,58.0,13.31,PF,1644029722.0,1013.0
Na Wa,17.4897,104.1006,69.76,50.0,84.0,8.08,TH,1644029724.0,1018.0
Yangi Marg`ilon,40.4272,71.7189,25.5,63.0,100.0,9.22,UZ,1644029725.0,1014.0
São João da Barra,-21.6403,-41.0511,76.01,85.0,99.0,20.96,BR,1644029543.0,1011.0
Mahibadhoo,3.7833,72.9667,81.61,70.0,16.0,8.9,MV,1644029728.0,1011.0
Vágur,61.4732,-6.8119,37.6,61.0,100.0,14.9,FO,1644029729.0,992.0
Caucayá,-0.1934,-74.7819,72.48,96.0,57.0,0.6,CO,1644029731.0,1011.0
Khovd,48.0056,91.6419,-7.53,80.0,6.0,1.25,MN,1644029732.0,1056.0
Acapulco de Juárez,16.8634,-99.8901,74.53,77.0,0.0,2.55,MX,1644029734.0,1017.0
Airai,-8.9266,125.4092,71.83,71.0,97.0,2.68,TL,1644029735.0,1009.0
tumannyy,,,,,,,,,
vaitupu,,,,,,,,,
George Town,5.4112,100.3354,79.84,83.0,20.0,1.01,MY,1644029599.0,1010.0
İmamoğlu,37.2651,35.6572,40.71,69.0,0.0,6.85,TR,1644029740.0,1016.0
Carnarvon,-24.8667,113.6333,104.07,16.0,10.0,12.66,AU,1644029742.0,1004.0
Iqaluit,63.7506,-68.5145,-16.87,58.0,75.0,0.0,CA,1644029457.0,1005.0
Port Alfred,-33.5906,26.891,69.1,82.0,94.0,9.89,ZA,1644029745.0,1021.0
Cabo San Lucas,22.8909,-109.9124,65.19,68.0,0.0,3.44,MX,1644029447.0,1019.0
Hambantota,6.1241,81.1185,75.54,100.0,81.0,2.3,LK,1644029747.0,1011.0
Westport,41.1415,-73.3579,26.76,86.0,100.0,3.0,US,1644029749.0,1014.0
Kieta,-6.2167,155.6333,86.13,71.0,100.0,11.83,PG,1644029750.0,1006.0
Lüderitz,-26.6481,15.1594,68.63,71.0,90.0,4.41,NA,1644029639.0,1010.0
Dikson,73.5069,80.5464,-1.71,92.0,100.0,4.99,RU,1644029753.0,1020.0
Sémbé,1.6481,14.5806,66.67,63.0,53.0,1.41,CG,1644029754.0,1011.0
taolanaro,,,,,,,,,
El Tigre,8.8875,-64.2454,76.15,50.0,25.0,8.97,VE,1644029757.0,1013.0
Nouadhibou,20.931,-17.0347,64.38,72.0,4.0,10.36,MR,1644029758.0,1016.0
Hilo,19.7297,-155.09,74.05,95.0,29.0,1.01,US,1644029760.0,1017.0
Poum,-20.2333,164.0167,81.5,76.0,99.0,15.79,NC,1644029761.0,1001.0
Hermanus,-34.4187,19.2345,64.8,72.0,1.0,18.14,ZA,1644029762.0,1018.0
Cartagena,10.3997,-75.5144,80.22,78.0,20.0,11.5,CO,1644029659.0,1011.0
Portland,45.5234,-122.6762,46.99,87.0,100.0,3.0,US,1644029100.0,1031.0
Roald,62.5833,6.1333,37.67,65.0,40.0,29.93,NO,1644029766.0,982.0
Hasaki,35.7333,140.8333,45.32,33.0,7.0,14.43,JP,1644029768.0,1008.0
St. George's,12.0564,-61.7485,76.68,83.0,75.0,6.91,GD,1644029769.0,1014.0
Ponta do Sol,32.6667,-17.1,63.68,68.0,89.0,4.05,PT,1644029771.0,1020.0
Paraty,-23.2178,-44.7131,75.78,95.0,95.0,3.27,BR,1644029712.0,1012.0
Ouadda,8.0777,22.4007,70.14,20.0,78.0,7.94,CF,1644029773.0,1011.0
Saint Paul Harbor,57.79,-152.4072,38.71,87.0,100.0,0.0,US,1644029661.0,996.0
Cape Town,-33.9258,18.4232,64.17,68.0,0.0,3.0,ZA,1644029582.0,1015.0
Poltavka,54.3663,71.7632,15.85,79.0,100.0,7.83,RU,1644029777.0,1028.0
Cairns,-16.9167,145.7667,80.42,89.0,75.0,12.66,AU,1644029651.0,1003.0
Deputatsky,69.3,139.9,-26.36,99.0,75.0,2.77,RU,1644029780.0,1025.0
Vanavara,60.34,102.2797,9.23,94.0,100.0,6.46,RU,1644029781.0,1026.0
Mezen',65.8522,44.24,-6.68,100.0,100.0,6.87,RU,1644029783.0,1016.0
Ozernovskiy,51.5,156.5167,30.13,77.0,93.0,3.4,RU,1644029784.0,990.0
Sept-Îles,50.2001,-66.3821,-0.96,64.0,100.0,5.99,CA,1644029582.0,1023.0
Tuktoyaktuk,69.4541,-133.0374,-23.8,76.0,0.0,17.27,CA,1644029787.0,1009.0
Grand-Santi,4.25,-54.3833,72.19,99.0,100.0,2.13,GF,1644029788.0,1013.0
Severo-Kuril'sk,50.6789,156.125,31.26,85.0,92.0,9.22,RU,1644029790.0,990.0
Yuxia,34.0615,108.6291,34.41,48.0,100.0,3.67,CN,1644029791.0,1035.0
Esperance,-33.8667,121.9,85.84,46.0,4.0,9.08,AU,1644029653.0,1013.0
Bathsheba,13.2167,-59.5167,77.61,69.0,40.0,12.66,BB,1644029794.0,1015.0
Manitouwadge,49.1215,-85.8403,-1.48,95.0,76.0,1.77,CA,1644029795.0,1031.0
Lumeje,-11.55,20.7833,61.92,95.0,98.0,4.32,AO,1644029796.0,1012.0
Deogarh,21.5333,84.7333,65.3,37.0,0.0,3.78,IN,1644029798.0,1015.0
Pevek,69.7008,170.3133,-24.77,99.0,99.0,5.73,RU,1644029799.0,1027.0
Nanortalik,60.1432,-45.2371,11.88,61.0,82.0,38.97,GL,1644029801.0,1003.0
Albany,42.6001,-73.9662,12.74,84.0,100.0,4.59,US,1644029602.0,1015.0
Bila Krynytsya,50.6398,29.4704,23.23,95.0,97.0,8.12,UA,1644029803.0,1015.0
halalo,,,,,,,,,
fianga,,,,,,,,,
Barrow,71.2906,-156.7887,-18.56,99.0,100.0,7.07,US,1644029666.0,1007.0
belushya guba,,,,,,,,,
Klaksvík,62.2266,-6.589,34.72,56.0,97.0,18.23,FO,1644029610.0,991.0
Busselton,-33.65,115.3333,99.05,29.0,10.0,8.88,AU,1644029567.0,1008.0
Kamenka,51.3223,42.7678,10.72,98.0,90.0,7.29,RU,1644029812.0,1009.0
Tommot,58.9564,126.2925,0.5,89.0,100.0,6.73,RU,1644029814.0,1031.0
Khatanga,71.9667,102.5,-35.79,100.0,87.0,2.53,RU,1644029815.0,1022.0
Qasigiannguit,68.8193,-51.1922,1.18,91.0,100.0,6.6,GL,1644029817.0,1005.0
Ocampo,21.65,-101.5,49.64,67.0,69.0,6.42,MX,1644029818.0,1022.0
Kattivākkam,13.2167,80.3167,78.08,88.0,45.0,1.88,IN,1644029819.0,1013.0
Biltine,14.5333,20.9167,60.42,23.0,5.0,18.41,TD,1644029821.0,1016.0
Chui,-33.6971,-53.4616,68.81,94.0,16.0,4.56,UY,1644029684.0,1006.0
Buluang,13.3068,123.3425,82.96,65.0,94.0,8.95,PH,1644029823.0,1013.0
Prescott,34.54,-112.4685,33.66,27.0,0.0,3.0,US,1644029623.0,1031.0
sumbawa,,,,,,,,,
Shiraoi,42.55,141.35,24.98,58.0,17.0,7.76,JP,1644029827.0,1003.0
Saskylakh,71.9167,114.0833,-9.9,99.0,99.0,5.48,RU,1644029829.0,1021.0
Atuona,-9.8,-139.0333,78.51,77.0,22.0,15.9,PF,1644029623.0,1012.0
Leh,34.1667,77.5833,-5.15,88.0,100.0,3.44,IN,1644029831.0,1046.0
Butaritari,3.0707,172.7902,82.63,77.0,36.0,17.76,KI,1644029833.0,1006.0
Bose,45.4612,8.0137,37.9,85.0,16.0,2.84,IT,1644029834.0,1017.0
Hithadhoo,-0.6,73.0833,81.79,73.0,99.0,11.63,MV,1644029835.0,1010.0
Kuršumlija,43.1458,21.2686,27.95,83.0,3.0,3.91,RS,1644029837.0,1021.0
Niamey,13.5137,2.1098,68.29,13.0,0.0,9.22,NE,1644029838.0,1015.0
Cidreira,-30.1811,-50.2056,72.55,92.0,13.0,4.32,BR,1644029780.0,1006.0
Cherlak,54.155,74.8055,11.39,82.0,100.0,7.54,RU,1644029841.0,1031.0
barentsburg,,,,,,,,,
Oddur,4.1213,43.8894,66.92,76.0,21.0,17.09,SO,1644029843.0,1010.0
Hobart,-42.8794,147.3294,68.2,64.0,75.0,10.36,AU,1644029845.0,1026.0
Ancud,-41.8697,-73.8203,53.13,91.0,10.0,3.13,CL,1644029846.0,1022.0
Youkounkoun,12.5333,-13.1333,73.85,15.0,0.0,3.11,GN,1644029711.0,1010.0
Gouré,13.9835,10.2704,55.53,23.0,2.0,12.41,NE,1644029849.0,1017.0
Souillac,-20.5167,57.5167,79.18,89.0,75.0,17.27,MU,1644029635.0,1009.0
Te Anau,-45.4167,167.7167,64.02,39.0,4.0,4.9,NZ,1644029851.0,1011.0
San Miguel de Tucumán,-26.8241,-65.2226,68.0,94.0,100.0,9.22,AR,1644029807.0,1013.0
Barra de Tecoanapa,16.5167,-98.75,75.2,75.0,0.0,2.93,MX,1644029854.0,1016.0
Castro,-24.7911,-50.0119,64.38,98.0,64.0,4.25,BR,1644029686.0,1012.0
Puerto Madryn,-42.7692,-65.0385,59.88,59.0,98.0,18.23,AR,1644029857.0,1021.0
Bonoua,5.2741,-3.595,80.22,89.0,0.0,1.61,CI,1644029858.0,1010.0
Fortuna,40.5982,-124.1573,46.17,94.0,75.0,8.05,US,1644029712.0,1032.0
Laas,46.6166,10.7002,28.08,93.0,28.0,7.74,IT,1644029861.0,1023.0
Quang Ngai,15.1167,108.8,70.66,92.0,100.0,7.94,VN,1644029862.0,1019.0
Tasiilaq,65.6145,-37.6368,20.5,69.0,100.0,42.46,GL,1644029863.0,985.0
Vardø,70.3705,31.1107,21.6,91.0,100.0,27.67,NO,1644029865.0,992.0
Lompoc,34.6391,-120.4579,52.93,71.0,0.0,20.0,US,1644029866.0,1026.0
Slave Lake,55.2834,-114.769,3.18,78.0,100.0,5.75,CA,1644029604.0,1005.0
Yar-Sale,66.8333,70.8333,-1.53,100.0,90.0,5.66,RU,1644029860.0,1016.0
warqla,,,,,,,,,
Shuangcheng,45.35,126.2833,2.88,84.0,82.0,7.38,CN,1644029871.0,1023.0
Morehead,37.2711,-87.1764,19.15,86.0,0.0,0.0,US,1644029872.0,1031.0
Cherskiy,68.75,161.3,-29.94,96.0,9.0,3.53,RU,1644029874.0,1025.0
Norman Wells,65.282,-126.8329,-5.76,59.0,75.0,25.32,CA,1644029743.0,1008.0
Saint-Augustin,51.226,-58.6502,-10.71,86.0,100.0,9.46,CA,1644029876.0,1025.0
Mnichovo Hradiště,50.5272,14.9713,37.99,71.0,89.0,17.16,CZ,1644029878.0,1015.0
Križevci,46.0219,16.5425,40.59,92.0,88.0,2.77,HR,1644029879.0,1017.0
Micheweni,-4.9667,39.8333,79.09,83.0,99.0,4.38,TZ,1644029881.0,1010.0
Itaituba,-4.2761,-55.9836,78.96,89.0,75.0,0.0,BR,1644029882.0,1011.0
Puerto Baquerizo Moreno,-0.9,-89.6,75.04,84.0,84.0,6.91,EC,1644029883.0,1014.0
Pemangkat,1.1667,108.9667,82.45,71.0,100.0,9.1,ID,1644029885.0,1009.0
Alofi,-19.0595,-169.9187,76.89,94.0,100.0,8.05,NU,1644029660.0,1012.0
Grand-Lahou,5.1367,-5.0242,78.35,85.0,4.0,5.37,CI,1644029887.0,1010.0
Kaitangata,-46.2817,169.8464,57.29,54.0,15.0,8.5,NZ,1644029889.0,1014.0
Kahului,20.8947,-156.47,77.85,85.0,25.0,5.99,US,1644029890.0,1017.0
San Cristobal,7.7669,-72.225,71.78,91.0,51.0,2.3,VE,1644029662.0,1016.0
Ambilobe,-13.2,49.05,75.42,90.0,100.0,10.47,MG,1644029892.0,1006.0
Belyy Yar,53.6039,91.3903,-20.31,83.0,20.0,0.0,RU,1644029599.0,1038.0
Tsimmerbude,54.675,20.1347,41.05,93.0,100.0,19.6,RU,1644029895.0,997.0
Sørland,67.667,12.6934,28.47,88.0,100.0,26.98,NO,1644029896.0,971.0
Benjamin Constant,-4.3831,-70.0311,75.33,96.0,96.0,2.15,BR,1644029898.0,1012.0
Lagoa,39.05,-27.9833,57.67,83.0,81.0,19.57,PT,1644029640.0,1030.0
Dingle,10.9995,122.6711,80.78,73.0,89.0,18.68,PH,1644029900.0,1013.0
Codrington,-38.2667,141.9667,71.47,53.0,98.0,19.3,AU,1644029725.0,1021.0
chagda,,,,,,,,,
Bambous Virieux,-20.3428,57.7575,79.05,89.0,75.0,17.27,MU,1644029904.0,1009.0
Margate,51.3813,1.3862,37.27,81.0,1.0,3.0,GB,1644029905.0,1022.0
Bandarbeyla,9.4942,50.8122,71.91,75.0,0.0,3.78,SO,1644029907.0,1013.0
Bilibino,68.0546,166.4372,-5.31,80.0,0.0,4.61,RU,1644029908.0,1023.0
Palakkad,10.7833,76.65,73.45,59.0,43.0,4.68,IN,1644029909.0,1012.0
Pleshanovo,52.8333,53.4833,24.03,91.0,100.0,9.53,RU,1644029911.0,1007.0
Great Yarmouth,52.6083,1.7305,37.36,86.0,5.0,19.28,GB,1644029670.0,1017.0
Buraidah,26.326,43.975,52.25,38.0,0.0,9.62,SA,1644029913.0,1016.0
Steamboat Springs,40.485,-106.8317,14.29,63.0,0.0,0.0,US,1644029700.0,1029.0
Lavrentiya,65.5833,-171.0,-10.21,83.0,2.0,9.42,RU,1644029916.0,1009.0
Katobu,-4.9408,122.5276,88.61,55.0,98.0,6.38,ID,1644029917.0,1008.0
Kiryat Gat,31.61,34.7642,51.04,100.0,83.0,11.72,IL,1644029918.0,1018.0
Boden,65.8252,21.6886,30.2,94.0,100.0,10.0,SE,1644029920.0,982.0
Port Lincoln,-34.7333,135.8667,73.13,59.0,6.0,10.67,AU,1644029921.0,1017.0
Naifaru,5.4444,73.3657,81.3,67.0,40.0,10.04,MV,1644029922.0,1011.0
Ruidoso,33.3317,-105.673,15.57,79.0,0.0,0.96,US,1644029924.0,1072.0
Maragogi,-9.0122,-35.2225,78.01,76.0,8.0,7.02,BR,1644029925.0,1012.0
Pacific Grove,36.6177,-121.9166,52.14,66.0,0.0,4.0,US,1644029915.0,1028.0
Tonantins,-2.8731,-67.8022,73.56,99.0,100.0,2.86,BR,1644029928.0,1012.0
Aklavik,68.2191,-135.0107,-21.17,90.0,6.0,17.67,CA,1644029929.0,1009.0
lolua,,,,,,,,,
Atar,20.5169,-13.0499,68.79,12.0,20.0,6.02,MR,1644029657.0,1015.0
Thompson,55.7435,-97.8558,-20.04,76.0,0.0,5.75,CA,1644029860.0,1024.0
Ribeira Grande,38.5167,-28.7,58.93,82.0,25.0,12.88,PT,1644029934.0,1030.0
Longyearbyen,78.2186,15.6401,13.84,57.0,20.0,26.46,SJ,1644029662.0,1007.0
Adrar,20.5022,-10.0711,62.76,12.0,0.0,9.73,MR,1644029776.0,1016.0
Katsuura,35.1333,140.3,46.44,41.0,97.0,11.21,JP,1644029937.0,1008.0
Mongo,12.1844,18.693,62.46,18.0,8.0,8.46,TD,1644029938.0,1014.0
Ljungby,56.8332,13.9408,34.25,87.0,68.0,13.4,SE,1644029940.0,998.0
Wobulenzi,0.7283,32.5122,64.27,61.0,100.0,1.05,UG,1644029941.0,1012.0
São Félix do Xingu,-6.6447,-51.995,71.83,94.0,67.0,0.65,BR,1644029649.0,1011.0
Comodoro Rivadavia,-45.8667,-67.5,53.46,76.0,0.0,5.75,AR,1644029644.0,1023.0
Ketchikan,55.3422,-131.6461,41.49,96.0,100.0,7.18,US,1644029945.0,1016.0
Kuantan,3.8077,103.326,78.08,88.0,20.0,6.91,MY,1644029946.0,1011.0
Bongandanga,1.5,21.05,67.77,52.0,100.0,2.46,CD,1644029948.0,1009.0
Muhafazat Lahij,13.1667,44.5833,68.49,53.0,4.0,1.81,YE,1644029949.0,1012.0
Port-Cartier,50.0334,-66.8654,-1.26,89.0,100.0,7.94,CA,1644029950.0,1025.0
urdzhar,,,,,,,,,
Kavieng,-2.5744,150.7967,83.97,70.0,100.0,6.8,PG,1644029953.0,1006.0
ust-kamchatsk,,,,,,,,,
East London,-33.0153,27.9116,68.27,90.0,100.0,8.46,ZA,1644029955.0,1021.0
Tambun,-6.2641,107.0712,84.87,74.0,40.0,6.91,ID,1644029957.0,1010.0
San Luis,-33.295,-66.3356,66.15,51.0,67.0,14.56,AR,1644029958.0,1014.0
Bambanglipuro,-7.95,110.2833,85.5,66.0,64.0,9.89,ID,1644029960.0,1009.0
São Raimundo das Mangabeiras,-7.0219,-45.4811,75.13,81.0,98.0,3.06,BR,1644029961.0,1010.0
Altamira,-3.2033,-52.2064,72.09,96.0,97.0,2.01,BR,1644029962.0,1012.0
Homer,59.6425,-151.5483,29.77,91.0,44.0,5.77,US,1644029964.0,999.0
Chokurdakh,70.6333,147.9167,-30.24,100.0,12.0,1.39,RU,1644029965.0,1025.0
Zhangaözen,43.3,52.8,38.7,89.0,100.0,7.09,KZ,1644029967.0,1001.0
Chara,56.9064,118.2631,-7.58,88.0,87.0,0.94,RU,1644029968.0,1038.0
Tabou,4.423,-7.3528,78.31,83.0,34.0,4.83,CI,1644029969.0,1010.0
Tocopilla,-22.092,-70.1979,70.52,67.0,1.0,7.81,CL,1644029971.0,1016.0
Port Elizabeth,-33.918,25.5701,66.49,82.0,75.0,2.3,ZA,1644029858.0,1022.0
Lodja,-3.4833,23.4333,67.03,94.0,98.0,2.1,CD,1644029973.0,1011.0
Qaqortoq,60.7167,-46.0333,3.92,52.0,5.0,23.09,GL,1644029975.0,1004.0
Harindānga,22.0383,88.3214,64.38,56.0,0.0,14.58,IN,1644029976.0,1014.0
Neiafu,-18.65,-173.9833,79.48,94.0,75.0,2.3,TO,1644029978.0,1011.0
São José da Coroa Grande,-8.8978,-35.1478,78.31,75.0,7.0,7.16,BR,1644029979.0,1012.0
Ternate,0.8,127.4,85.42,67.0,100.0,4.54,ID,1644029981.0,1009.0
Kidal,18.4411,1.4078,57.02,18.0,0.0,11.23,ML,1644029982.0,1018.0
saleaula,,,,,,,,,
Manaure,11.7751,-72.4445,76.41,80.0,0.0,12.71,CO,1644029985.0,1015.0
Tanakpur,29.0833,80.1167,51.24,74.0,3.0,3.94,IN,1644029986.0,1015.0
Aswān,24.0934,32.907,48.9,57.0,0.0,9.01,EG,1644029988.0,1022.0
Nome,64.5011,-165.4064,2.16,68.0,100.0,6.42,US,1644029989.0,1003.0
Verkhnyaya Sinyachikha,57.976,61.6673,19.96,97.0,100.0,3.91,RU,1644029991.0,1015.0
Oodweyne,9.4092,45.064,61.12,46.0,3.0,5.93,SO,1644029992.0,1014.0
Hualmay,-11.0964,-77.6139,69.78,85.0,39.0,9.1,PE,1644029993.0,1015.0
Nabire,-3.3667,135.4833,86.45,64.0,100.0,6.15,ID,1644029706.0,1008.0
Saldanha,-33.0117,17.9442,60.85,73.0,0.0,9.33,ZA,1644029996.0,1013.0
Liancheng,24.0519,105.075,48.52,77.0,100.0,4.0,CN,1644029998.0,1022.0
Alexandria,31.2156,29.9553,51.76,82.0,40.0,13.8,EG,1644029895.0,1019.0
louisbourg,,,,,,,,,
Mazara del Vallo,37.6641,12.588,51.01,81.0,8.0,1.9,IT,1644030002.0,1019.0
toliary,,,,,,,,,
Preobrazheniye,42.9019,133.9064,13.71,42.0,4.0,7.99,RU,1644030006.0,1013.0
utiroa,,,,,,,,,
Bonthe,7.5264,-12.505,74.82,85.0,10.0,1.16,SL,1644030012.0,1010.0
Yantal',56.8471,105.2542,12.15,92.0,100.0,5.37,RU,1644030013.0,1035.0
Scarborough,54.2797,-0.4044,35.56,85.0,3.0,4.0,GB,1644030015.0,1013.0
Montepuez,-13.1256,38.9997,67.5,98.0,100.0,4.79,MZ,1644030017.0,1010.0
Sokoto,13.0609,5.239,61.5,15.0,0.0,14.99,NG,1644030019.0,1015.0
Nioro,13.35,-15.75,73.85,12.0,0.0,4.43,GM,1644030023.0,1010.0
Kungurtug,50.5994,97.5228,-5.91,91.0,36.0,1.3,RU,1644030025.0,1055.0
Whitianga,-36.8333,175.7,75.27,74.0,17.0,10.74,NZ,1644030028.0,1009.0
Puntarenas,9.9763,-84.8384,77.34,76.0,12.0,1.66,CR,1644030029.0,1014.0
Santa Cruz de la Sierra,-17.8,-63.1667,74.46,88.0,63.0,11.95,BO,1644030031.0,1008.0
Pisco,-13.7,-76.2167,67.01,90.0,14.0,0.98,PE,1644030033.0,1014.0
samusu,,,,,,,,,
Fernie,49.5,-115.0687,38.61,99.0,100.0,4.0,CA,1644030024.0,1020.0
Solaro,44.8799,9.1732,40.86,93.0,65.0,1.23,IT,1644030037.0,1017.0
Mount Isa,-20.7333,139.5,89.37,19.0,5.0,5.75,AU,1644030041.0,1008.0
Bengkulu,-3.8004,102.2655,76.21,86.0,100.0,3.76,ID,1644029916.0,1011.0
Rocha,-34.4833,-54.3333,65.8,96.0,47.0,3.04,UY,1644030045.0,1007.0
Petauke,-14.2426,31.3253,63.23,95.0,100.0,1.45,ZM,1644030046.0,1013.0
Kroya,-7.6331,109.2461,83.91,70.0,97.0,3.56,ID,1644030048.0,1009.0
Mersin Province,36.862,34.6509,45.75,57.0,20.0,4.94,TR,1644030050.0,1016.0
New Norfolk,-42.7826,147.0587,68.29,51.0,98.0,1.99,AU,1644030053.0,1025.0
Aykhal,66.0,111.5,-22.13,100.0,90.0,5.17,RU,1644030054.0,1028.0
Champerico,14.3,-91.9167,78.13,72.0,5.0,3.91,GT,1644030057.0,1014.0
Frolovo,49.7713,43.6622,22.19,95.0,100.0,10.42,RU,1644030059.0,1009.0
Ishøj,55.6154,12.3518,35.76,93.0,20.0,11.5,DK,1644030061.0,1001.0
Narsaq,60.9167,-46.05,-0.47,52.0,0.0,15.93,GL,1644030063.0,1004.0
San Patricio,28.017,-97.5169,38.5,72.0,6.0,13.98,US,1644030065.0,1038.0
La Rioja,42.25,-2.5,35.38,91.0,100.0,2.82,ES,1644030066.0,1027.0
San Angelo,31.4638,-100.437,28.35,69.0,0.0,6.91,US,1644030067.0,1037.0
Nishihara,26.1842,127.7558,61.88,55.0,75.0,23.02,JP,1644030069.0,1024.0
Yamada,39.4667,141.95,33.73,40.0,26.0,17.43,JP,1644030070.0,1005.0
Tālbahat,25.05,78.4333,54.14,46.0,0.0,3.27,IN,1644030072.0,1015.0
fevralsk,,,,,,,,,
Inírida,3.8653,-67.9239,74.55,91.0,54.0,2.62,CO,1644030075.0,1011.0
Vostok,46.4856,135.8833,-0.06,85.0,100.0,5.57,RU,1644030076.0,1015.0
Huambo,-12.7761,15.7392,58.96,95.0,100.0,1.05,AO,1644030077.0,1014.0
Fuzhou,26.0614,119.3061,50.29,70.0,99.0,4.94,CN,1644030006.0,1030.0
Jieshi,22.8134,115.8257,54.95,68.0,66.0,9.73,CN,1644030080.0,1026.0
Arandas,20.7,-102.35,56.7,36.0,26.0,1.88,MX,1644030082.0,1019.0
Mersing,2.4312,103.8405,80.78,81.0,100.0,11.21,MY,1644030059.0,1011.0
Provideniya,64.3833,-173.3,0.07,68.0,1.0,10.18,RU,1644030084.0,1006.0
Berezovyy,51.6667,135.7,12.15,87.0,100.0,0.98,RU,1644030086.0,1012.0
tasbuget,,,,,,,,,
Torrington,41.8007,-73.1212,24.69,92.0,100.0,1.99,US,1644030044.0,1014.0
Bhachāu,23.2833,70.35,63.0,71.0,2.0,4.52,IN,1644030089.0,1012.0
Buchanan,5.8808,-10.0467,78.21,85.0,21.0,3.96,LR,1644030091.0,1010.0
Qaanaaq,77.484,-69.3632,1.63,70.0,100.0,6.31,GL,1644030092.0,998.0
Oriximiná,-1.7656,-55.8661,74.14,91.0,95.0,1.74,BR,1644030094.0,1012.0
Lawton,34.6087,-98.3903,22.91,94.0,5.0,4.61,US,1644030007.0,1039.0
Maxixe,-23.8597,35.3472,75.52,80.0,85.0,8.95,MZ,1644030096.0,1011.0
New Castle,41.0037,-80.347,18.99,89.0,100.0,6.91,US,1644030098.0,1022.0
Richards Bay,-28.783,32.0377,71.51,93.0,100.0,15.86,ZA,1644030099.0,1018.0
Poconé,-16.2567,-56.6228,76.26,79.0,47.0,4.79,BR,1644030101.0,1010.0
Cumanayagua,22.1494,-80.2022,69.55,86.0,8.0,8.16,CU,1644030102.0,1021.0
Touros,-5.1989,-35.4608,81.5,74.0,4.0,12.91,BR,1644030104.0,1011.0
Christiana,-27.914,25.1611,63.39,88.0,0.0,11.77,ZA,1644030105.0,1016.0
Monywa,22.1167,95.1333,69.66,45.0,80.0,7.02,MM,1644030107.0,1014.0
Amoy,24.4798,118.0819,54.25,69.0,79.0,15.1,CN,1644030108.0,1027.0
Luganville,-15.5333,167.1667,81.9,81.0,100.0,4.23,VU,1644030110.0,1003.0
Casas Grandes,30.3667,-107.95,27.45,41.0,0.0,6.42,MX,1644030111.0,1035.0
Bordighera,43.7806,7.6645,50.07,81.0,69.0,1.01,IT,1644030113.0,1014.0
Dukat,62.55,155.55,-8.9,74.0,5.0,7.61,RU,1644030114.0,1018.0
Ambon City,-3.6954,128.1814,89.74,58.0,20.0,8.05,ID,1644030116.0,1007.0
jambol,,,,,,,,,
Dzhebariki-Khaya,62.2167,135.8,-25.33,94.0,84.0,2.13,RU,1644030118.0,1030.0
Dunedin,-45.8742,170.5036,56.41,59.0,84.0,5.93,NZ,1644029987.0,1014.0
Estelle,29.8458,-90.1067,36.88,78.0,100.0,14.97,US,1644030121.0,1030.0
Liku,-0.7275,119.8922,86.34,59.0,100.0,1.61,ID,1644030123.0,1009.0
Carutapera,-1.195,-46.02,75.54,93.0,100.0,5.39,BR,1644030124.0,1011.0
Manono,-7.3,27.4167,65.26,93.0,100.0,1.28,CD,1644030126.0,1013.0
Tashtyp,52.7939,89.8983,7.74,86.0,85.0,3.11,RU,1644030127.0,1041.0
Alice Springs,-23.7,133.8833,78.35,31.0,0.0,8.05,AU,1644030129.0,1013.0
Christchurch,-43.5333,172.6333,55.85,85.0,75.0,1.01,NZ,1644030020.0,1018.0
Zambezi,-13.5432,23.1047,61.68,98.0,83.0,4.23,ZM,1644030132.0,1012.0
Amuntai,-2.4177,115.2494,83.64,78.0,100.0,0.81,ID,1644030133.0,1009.0
haibowan,,,,,,,,,
Safranbolu,41.2508,32.6942,15.03,93.0,67.0,2.39,TR,1644030136.0,1027.0
Çarşamba,41.1989,36.7219,35.35,87.0,75.0,5.75,TR,1644030137.0,1021.0
Fort Nelson,58.8053,-122.7002,-7.4,95.0,100.0,2.21,CA,1644030138.0,1016.0
Lake Havasu City,34.4839,-114.3224,55.26,17.0,0.0,3.0,US,1644029869.0,1029.0
Helong,42.5397,128.9972,10.09,57.0,80.0,12.91,CN,1644030141.0,1021.0
Lata,40.1629,-8.3327,42.28,96.0,73.0,1.86,PT,1644030142.0,1026.0
Vao,-22.6667,167.4833,80.35,86.0,100.0,10.96,NC,1644030144.0,999.0
Sal Rei,16.1833,-22.9167,68.56,82.0,0.0,18.19,CV,1644030145.0,1015.0
Port Moresby,-9.4431,147.1797,87.62,62.0,78.0,16.2,PG,1644030147.0,1005.0
Port Augusta,-32.5,137.7667,90.72,19.0,7.0,7.96,AU,1644030148.0,1014.0
San Jose,37.3394,-121.895,53.6,58.0,0.0,0.0,US,1644029986.0,1029.0
Champaign,40.1334,-88.2001,17.2,79.0,75.0,5.99,US,1644029676.0,1023.0
karkaralinsk,,,,,,,,,
Ilulissat,69.2167,-51.1,10.42,56.0,40.0,11.5,GL,1644030154.0,1001.0
Upernavik,72.7868,-56.1549,4.06,95.0,100.0,14.52,GL,1644030155.0,1000.0
Hokitika,-42.7167,170.9667,61.54,81.0,100.0,7.74,NZ,1644030156.0,1008.0
Beira,-19.8436,34.8389,80.69,83.0,40.0,8.05,MZ,1644030158.0,1009.0
Yuli,9.6989,10.2744,64.31,22.0,0.0,7.4,NG,1644030160.0,1014.0
Hong Kong,22.2855,114.1577,58.48,76.0,90.0,1.99,HK,1644029986.0,1025.0
Kolyvan',55.3053,82.7391,6.01,86.0,97.0,10.65,RU,1644030162.0,1034.0
Narrabri,-30.3167,149.7833,79.52,42.0,62.0,5.99,AU,1644030164.0,1013.0
Oleksandrivka,48.9634,32.2349,12.58,97.0,53.0,3.22,UA,1644030165.0,1019.0
Villa Carlos Paz,-31.4241,-64.4978,56.26,10.0,0.0,1.99,AR,1644030167.0,1015.0
Ahipara,-35.1667,173.1667,71.1,96.0,91.0,14.23,NZ,1644030168.0,1005.0
Yenangyaung,20.4667,94.8833,75.96,36.0,1.0,7.31,MM,1644030170.0,1013.0
Passos,-20.7189,-46.6097,67.68,96.0,94.0,1.48,BR,1644030171.0,1013.0
Maningrida,-12.0667,134.2667,87.8,62.0,75.0,9.78,AU,1644030173.0,1006.0
Xam Nua,20.4197,104.0439,56.3,73.0,97.0,3.76,LA,1644030174.0,1022.0
ngukurr,,,,,,,,,
Tuatapere,-46.1333,167.6833,58.82,53.0,24.0,8.99,NZ,1644030177.0,1014.0
Otukpo,7.1913,8.1329,72.12,17.0,0.0,3.74,NG,1644030178.0,1010.0
Myanaung,18.2833,95.3167,79.47,42.0,61.0,5.19,MM,1644030180.0,1014.0
Maneromango,-7.1988,38.7848,66.7,96.0,100.0,1.19,TZ,1644030181.0,1011.0
Río Gallegos,-51.6226,-69.2181,50.58,64.0,7.0,15.93,AR,1644030183.0,1018.0
Flin Flon,54.7682,-101.865,-10.1,96.0,100.0,6.4,CA,1644030021.0,1025.0
Kinablangan,7.6947,126.5503,80.69,80.0,55.0,7.81,PH,1644030185.0,1012.0
Duluth,46.7833,-92.1066,-3.26,72.0,0.0,3.44,US,1644029844.0,1030.0
Talnakh,69.4865,88.3972,-7.64,97.0,92.0,4.7,RU,1644030188.0,1017.0
Caravelas,-17.7125,-39.2481,75.56,92.0,100.0,6.64,BR,1644030189.0,1013.0
Bam,29.106,58.357,59.22,28.0,0.0,7.65,IR,1644030190.0,1006.0
Mayo,38.8876,-76.5119,34.32,83.0,100.0,3.0,US,1644030192.0,1012.0
Riberalta,-10.9833,-66.1,74.14,99.0,100.0,3.13,BO,1644030193.0,1012.0
Morondava,-20.2833,44.2833,79.18,70.0,86.0,6.22,MG,1644030195.0,1005.0
Kūd,33.0833,75.2833,24.33,72.0,1.0,9.71,IN,1644030197.0,1019.0
Karlstad,59.3793,13.5036,30.76,100.0,8.0,10.36,SE,1644030198.0,989.0
Tegul'det,57.3064,88.1667,17.33,83.0,100.0,11.65,RU,1644030199.0,1030.0
Bara,10.3744,10.7288,61.23,23.0,0.0,8.05,NG,1644030201.0,1015.0
The Pas,53.8251,-101.2541,-8.5,95.0,100.0,7.81,CA,1644030202.0,1025.0
Tokmak,47.2514,35.7058,24.3,86.0,97.0,8.08,UA,1644030204.0,1018.0
Vestmannaeyjar,63.4427,-20.2734,31.91,74.0,100.0,30.67,IS,1644030193.0,980.0
Keti Bandar,24.1447,67.4497,69.4,55.0,1.0,6.46,PK,1644030206.0,1011.0
Guerrero Negro,27.9769,-114.0611,60.53,35.0,0.0,1.88,MX,1644030208.0,1021.0
Virginia Beach,36.8529,-75.978,39.85,91.0,100.0,16.11,US,1644030145.0,1016.0
Faya,18.3851,42.4509,52.32,92.0,25.0,5.7,SA,1644030211.0,1016.0
Mirny,62.5353,113.9611,-10.71,98.0,83.0,3.62,RU,1644030212.0,1030.0
North Platte,41.1239,-100.7654,29.07,56.0,0.0,3.0,US,1644030214.0,1027.0
Vega de Alatorre,20.0333,-96.6333,52.74,84.0,100.0,17.02,MX,1644030215.0,1034.0
bargal,,,,,,,,,
Bethel,41.3712,-73.414,24.22,83.0,100.0,10.36,US,1644030050.0,1014.0
Kudahuvadhoo,2.6708,72.8944,81.7,73.0,17.0,10.56,MV,1644030219.0,1010.0
Road Town,18.4167,-64.6167,73.99,76.0,100.0,18.99,VG,1644030220.0,1018.0
Seoul,37.5683,126.9778,25.45,32.0,0.0,10.36,KR,1644029960.0,1027.0
La Ronge,55.1001,-105.2842,-3.1,97.0,100.0,9.75,CA,1644030166.0,1020.0
Numan,9.4667,12.0333,66.2,24.0,50.0,3.83,NG,1644030224.0,1013.0
Ulladulla,-35.35,150.4667,70.77,58.0,36.0,14.25,AU,1644030225.0,1021.0
Necochea,-38.5473,-58.7368,60.04,75.0,100.0,7.49,AR,1644030227.0,1010.0
Inhambane,-23.865,35.3833,76.19,80.0,82.0,10.11,MZ,1644030228.0,1011.0
Grand Gaube,-20.0064,57.6608,80.38,80.0,99.0,13.0,MU,1644030068.0,1008.0
Ayna,-12.65,-73.9167,59.86,89.0,69.0,1.23,PE,1644030231.0,1018.0
Abu Samrah,35.3029,37.1841,42.17,93.0,3.0,7.11,SY,1644030232.0,1014.0
Dhārchula,29.85,80.5333,41.23,71.0,0.0,5.12,IN,1644030234.0,1016.0
Sabha,27.0377,14.4283,48.07,36.0,0.0,5.97,LY,1644030235.0,1026.0
Rochester,43.1548,-77.6156,16.36,90.0,100.0,1.99,US,1644029623.0,1022.0
Ust'-Kut,56.7938,105.7672,11.25,93.0,100.0,4.5,RU,1644030238.0,1035.0
Byron Bay,-28.65,153.6167,71.78,67.0,93.0,21.52,AU,1644030239.0,1012.0
São Francisco,-15.9486,-44.8644,72.88,82.0,100.0,3.71,BR,1644030113.0,1012.0
Naze,28.3667,129.4833,53.62,64.0,98.0,17.29,JP,1644030242.0,1024.0
Abnūb,27.2696,31.1511,47.86,69.0,6.0,8.1,EG,1644030243.0,1023.0
North Bend,43.4065,-124.2243,47.98,99.0,100.0,3.44,US,1644030245.0,1034.0
Jumla,29.2747,82.1838,29.07,76.0,6.0,3.0,NP,1644030246.0,1017.0
Okoneshnikovo,54.8377,75.0834,11.7,82.0,100.0,7.65,RU,1644030248.0,1030.0
Biak,-0.9131,122.8766,84.16,66.0,98.0,2.93,ID,1644030250.0,1009.0
Beijing,39.9075,116.3972,29.89,21.0,0.0,5.95,CN,1644030131.0,1036.0
Khorixas,-20.3667,14.9667,69.22,54.0,100.0,7.14,NA,1644030252.0,1012.0
Cassilândia,-19.1133,-51.7342,72.79,89.0,46.0,2.82,BR,1644030254.0,1012.0
Plettenberg Bay,-34.0527,23.3716,61.72,78.0,0.0,5.82,ZA,1644030255.0,1021.0
Santa Cruz de La Palma,28.6835,-17.7642,60.94,77.0,0.0,4.61,ES,1644030257.0,1018.0
Camopi,3.1655,-52.3158,70.97,99.0,96.0,2.26,GF,1644030258.0,1013.0
Tombouctou,20.0,-3.0,60.3,11.0,0.0,9.46,ML,1644030259.0,1018.0
amderma,,,,,,,,,
Krasnosel'kup,65.7,82.4667,15.91,96.0,100.0,5.19,RU,1644030262.0,1009.0
Iberia,29.9502,-91.7507,37.27,70.0,100.0,14.97,US,1644030088.0,1033.0
Asilah,35.465,-6.0348,53.56,85.0,77.0,2.46,MA,1644030265.0,1024.0
Saint George,37.1041,-113.5841,41.36,30.0,1.0,4.0,US,1644030016.0,1034.0
Timrå,62.487,17.3257,20.88,93.0,40.0,2.3,SE,1644030267.0,984.0
Paamiut,61.994,-49.6678,5.38,92.0,100.0,7.9,GL,1644030269.0,1008.0
Hervey Bay,-25.2986,152.8535,81.01,59.0,23.0,18.01,AU,1644030270.0,1004.0
Lima,-12.0432,-77.0282,68.4,68.0,100.0,7.11,PE,1644030120.0,1015.0
Luang Prabang,19.8856,102.1347,75.79,58.0,86.0,2.06,LA,1644030272.0,1018.0
Rome,43.2128,-75.4557,11.34,92.0,100.0,5.75,US,1644030228.0,1020.0
Tateyama,34.9833,139.8667,47.05,49.0,70.0,16.49,JP,1644030275.0,1008.0
Ustka,54.5805,16.8619,38.03,89.0,100.0,25.19,PL,1644030276.0,1001.0
Bhadrāchalam,17.6667,80.8833,68.92,32.0,28.0,4.18,IN,1644030278.0,1014.0
Angra dos Reis,-23.0067,-44.3181,76.96,89.0,99.0,2.89,BR,1644029999.0,1011.0
Bumbuna,9.05,-11.7333,66.72,50.0,2.0,2.08,SL,1644030280.0,1012.0
Pueblo Nuevo,23.3833,-105.3833,44.98,60.0,0.0,6.89,MX,1644030282.0,1022.0
Pangody,65.85,74.4859,9.59,96.0,100.0,6.53,RU,1644030283.0,1014.0
Nelson Bay,-32.7167,152.15,76.17,59.0,37.0,3.0,AU,1644030284.0,1015.0
Córdoba,-31.4135,-64.1811,66.51,50.0,0.0,1.99,AR,1644030012.0,962.0
Gweta,-20.1833,25.2333,70.57,77.0,51.0,4.12,BW,1644030287.0,1011.0
Dārāb,28.7519,54.5444,54.64,48.0,8.0,6.02,IR,1644030288.0,1011.0
Harper,4.375,-7.7169,78.6,83.0,80.0,5.48,LR,1644030290.0,1010.0
Mount Gambier,-37.8333,140.7667,75.25,41.0,40.0,12.5,AU,1644030291.0,1020.0
Aran,40.6253,46.9756,47.71,40.0,100.0,24.16,AZ,1644030292.0,1006.0
Kendari,-3.945,122.4989,85.89,66.0,100.0,5.86,ID,1644030294.0,1008.0
Channel-Port aux Basques,47.5702,-59.1367,20.91,93.0,100.0,12.91,CA,1644030295.0,1012.0
marcona,,,,,,,,,
Elizabeth City,36.2946,-76.2511,42.17,92.0,100.0,21.85,US,1644030298.0,1017.0
Ust-Tsilma,65.441,52.1498,-16.2,100.0,86.0,2.01,RU,1644030299.0,1020.0
Port Hardy,50.6996,-127.4199,45.75,92.0,100.0,9.08,CA,1644030300.0,1027.0
Antalaha,-14.9003,50.2788,76.28,80.0,100.0,6.02,MG,1644030302.0,1002.0
Torbay,47.6666,-52.7314,31.66,97.0,100.0,12.66,CA,1644030203.0,1013.0
Bourne,52.7667,-0.3833,36.86,80.0,14.0,1.01,GB,1644030304.0,1024.0
Lakhdenpokh'ya,61.5198,30.1992,19.81,88.0,100.0,16.58,RU,1644030306.0,1003.0
Mossamedes,-15.1961,12.1522,70.48,69.0,17.0,6.29,AO,1644030307.0,1012.0
Sitka,57.0531,-135.33,42.69,81.0,100.0,12.66,US,1644030309.0,1013.0
Cap Malheureux,-19.9842,57.6142,80.47,81.0,100.0,10.0,MU,1644030310.0,1008.0
Ormara,25.2088,64.6357,70.18,42.0,0.0,7.74,PK,1644030311.0,1010.0
Cockburn Town,21.4612,-71.1419,75.76,73.0,0.0,17.52,TC,1644030061.0,1020.0
Port Shepstone,-30.7414,30.455,70.09,90.0,100.0,4.68,ZA,1644030314.0,1020.0
tuggurt,,,,,,,,,
mys shmidta,,,,,,,,,
Barguzin,53.6167,109.6167,6.31,94.0,94.0,0.85,RU,1644030318.0,1040.0
Podgornoye,51.735,39.1496,12.42,85.0,0.0,8.95,RU,1644030319.0,1011.0
Diapaga,12.0708,1.7889,65.52,15.0,3.0,8.41,BF,1644030320.0,1013.0
sayanskiy,,,,,,,,,
Mackenzie,55.2999,-123.1698,36.21,95.0,100.0,7.45,CA,1644030314.0,1006.0
Gazli,40.1333,63.45,42.58,38.0,82.0,17.31,UZ,1644030324.0,1004.0
Samarai,-10.6167,150.6667,85.21,73.0,96.0,6.38,PG,1644030325.0,1004.0
Carauari,-4.8828,-66.8958,72.0,98.0,59.0,1.95,BR,1644030315.0,1012.0
Sainte-Thècle,46.8168,-72.4991,7.12,93.0,100.0,4.72,CA,1644030328.0,1022.0
Xichang,27.8964,102.2634,50.86,61.0,12.0,3.0,CN,1644030330.0,1016.0
Kindu,-2.95,25.95,67.77,99.0,100.0,3.06,CD,1644030331.0,1011.0
Camacha,33.0833,-16.3333,60.21,94.0,20.0,4.61,PT,1644030332.0,1020.0
Pychas,56.5033,52.4409,25.05,99.0,100.0,4.25,RU,1644030334.0,1008.0
Barentu,15.1139,37.5928,60.84,82.0,2.0,3.62,ER,1644030335.0,1014.0
Kpandu,6.9954,0.2931,76.15,82.0,0.0,3.94,GH,1644030337.0,1010.0
Salalah,17.0151,54.0924,71.69,68.0,75.0,2.3,OM,1644030325.0,1013.0
Karabash,55.4808,60.2157,19.67,88.0,100.0,7.31,RU,1644030339.0,1014.0
Sungai Besar,3.6746,100.9867,81.91,71.0,57.0,2.19,MY,1644030341.0,1011.0
Springbok,-29.6643,17.8865,72.82,37.0,0.0,4.38,ZA,1644030342.0,1012.0
Sangar,63.9242,127.4739,-28.12,96.0,97.0,1.48,RU,1644030344.0,1029.0
Santa Rosa,14.3122,121.1114,84.33,67.0,37.0,18.84,PH,1644030345.0,1015.0
Wahiawā,21.5028,-158.0236,74.77,66.0,75.0,6.91,US,1644030346.0,1018.0
Egvekinot,66.3167,-179.1667,-4.81,70.0,0.0,11.81,RU,1644030348.0,1015.0
Leer,8.3018,30.1418,73.65,18.0,85.0,8.14,SS,1644030349.0,1011.0
Turukhansk,65.8167,87.9833,13.3,94.0,100.0,13.24,RU,1644030351.0,1012.0
Henties Bay,-22.116,14.2845,65.86,84.0,100.0,4.21,NA,1644030352.0,1012.0
San Felipe,10.3399,-68.7425,70.95,88.0,72.0,5.5,VE,1644030354.0,1016.0
Pangnirtung,66.1451,-65.7125,-25.64,99.0,100.0,1.92,CA,1644030241.0,1005.0
Kribi,2.95,9.9167,77.65,87.0,93.0,4.52,CM,1644030356.0,1010.0
Jalu,29.0331,21.5482,49.06,76.0,0.0,6.87,LY,1644030358.0,1026.0
Hay River,60.8156,-115.7999,-8.36,94.0,100.0,8.79,CA,1644030359.0,1018.0
Makkah al Mukarramah,21.4267,39.8261,57.67,51.0,3.0,11.9,SA,1644030361.0,1017.0
Albanel,48.8832,-72.4487,-3.23,89.0,100.0,5.46,CA,1644030362.0,1024.0
Roebourne,-20.7833,117.1333,92.39,54.0,65.0,17.45,AU,1644030363.0,1005.0
Ponyri,52.3186,36.3039,-2.9,100.0,100.0,4.9,RU,1644030365.0,1017.0
Plouzané,48.3833,-4.6167,40.46,90.0,20.0,4.61,FR,1644030366.0,1026.0
Robertsport,6.7533,-11.3686,78.33,83.0,9.0,2.82,LR,1644030367.0,1010.0
Waddān,29.1614,16.139,48.51,48.0,0.0,4.5,LY,1644030369.0,1026.0
Semnan,35.5729,53.3971,43.18,44.0,24.0,4.52,IR,1644030370.0,1003.0
Lebu,-37.6167,-73.65,57.76,85.0,78.0,17.02,CL,1644030365.0,1020.0
Asău,46.4333,26.4,22.12,74.0,41.0,6.15,RO,1644030373.0,1017.0
Tarakan,3.3,117.6333,81.19,70.0,100.0,3.06,ID,1644030206.0,1010.0
Ginda,30.6945,78.4932,27.57,50.0,0.0,4.43,IN,1644030375.0,1015.0
Hamilton,39.1834,-84.5333,14.95,80.0,40.0,4.61,US,1644030377.0,1028.0
Sítio Novo do Tocantins,-5.5183,-47.4611,72.88,95.0,99.0,2.75,BR,1644030378.0,1011.0
Rawson,-43.3002,-65.1023,58.64,59.0,80.0,17.83,AR,1644030380.0,1021.0
Hendek,40.7994,30.7481,19.72,68.0,1.0,5.61,TR,1644030381.0,1022.0
Nago,26.5881,127.9761,62.76,54.0,45.0,15.03,JP,1644030382.0,1025.0
jabiru,,,,,,,,,
Minas,-34.3759,-55.2377,65.52,94.0,90.0,2.53,UY,1644030385.0,1007.0
Rafaela,-31.2503,-61.4867,69.64,76.0,11.0,1.01,AR,1644030387.0,1009.0
Palmas Bellas,9.2319,-80.0867,76.77,80.0,8.0,10.85,PA,1644030388.0,1014.0
Tretten,61.3142,10.3007,19.74,86.0,100.0,3.87,NO,1644030389.0,989.0
Smirnykh,49.75,142.8333,14.0,78.0,100.0,9.31,RU,1644030391.0,1002.0
Bandar,2.05,99.75,79.14,86.0,100.0,2.73,ID,1644030392.0,1012.0
naugarzan,,,,,,,,,
bajo baudo,,,,,,,,,
Sorong,-0.8833,131.25,84.74,70.0,100.0,15.08,ID,1644030396.0,1008.0
Zyryanka,65.75,150.85,-28.41,98.0,100.0,1.5,RU,1644030397.0,1026.0
meyungs,,,,,,,,,
Marondera,-18.1853,31.5519,56.68,98.0,100.0,3.89,ZW,1644030400.0,1014.0
Matara,5.9485,80.5353,78.24,73.0,35.0,5.48,LK,1644030401.0,1012.0
Chipinge,-20.1883,32.6236,63.07,95.0,92.0,4.38,ZW,1644030403.0,1013.0
Voi,-3.3945,38.563,70.61,86.0,98.0,2.57,KE,1644030404.0,1011.0
Mapimí,25.8167,-103.85,41.18,35.0,0.0,4.76,MX,1644030406.0,1032.0
Takoradze,4.8845,-1.7554,79.5,80.0,59.0,3.83,GH,1644030407.0,1010.0
tabiauea,,,,,,,,,
Khanbari,27.3747,87.2039,50.18,61.0,65.0,1.01,NP,1644030410.0,1013.0
Khāsh,28.2211,61.2158,48.15,18.0,0.0,1.88,IR,1644030411.0,1011.0
Inuvik,68.3499,-133.7218,-27.78,94.0,6.0,11.63,CA,1644030412.0,1011.0
Moose Factory,51.2585,-80.6094,-13.25,98.0,100.0,3.58,CA,1644030414.0,1028.0
Zadar,44.1197,15.2422,45.21,87.0,75.0,3.44,HR,1644030415.0,1017.0
Sakakah,29.9697,40.2064,44.22,70.0,4.0,11.3,SA,1644030417.0,1018.0
Vyshkov,52.4764,31.6873,4.24,100.0,100.0,5.97,RU,1644030418.0,1017.0
Novopskov,49.5464,39.0899,3.56,98.0,71.0,4.85,UA,1644030419.0,1015.0
Port Hueneme,34.1478,-119.1951,58.37,34.0,0.0,3.44,US,1644030421.0,1026.0
Goderich,43.7501,-81.7165,9.12,91.0,100.0,7.61,CA,1644030422.0,1027.0
Port Hawkesbury,45.6169,-61.3485,31.57,99.0,100.0,6.91,CA,1644030423.0,1008.0
Saint-Pierre,-21.3393,55.4781,80.28,74.0,100.0,8.05,RE,1644030325.0,1003.0
Pochutla,15.7432,-96.4661,72.41,72.0,0.0,4.32,MX,1644030426.0,1016.0
Arrondissement de Lannion,48.75,-3.4167,42.87,87.0,75.0,3.44,FR,1644030427.0,1026.0
Cayenne,4.9333,-52.3333,79.09,88.0,100.0,5.01,GF,1644030429.0,1012.0
Abū Zabad,12.35,29.25,59.2,22.0,63.0,16.91,SD,1644030430.0,1016.0
Kisangani,0.5167,25.2,70.92,83.0,100.0,3.15,CD,1644030392.0,1010.0
Ubinskoye,55.3068,79.6802,11.16,85.0,100.0,11.05,RU,1644030433.0,1032.0
Bend,44.0582,-121.3153,40.75,48.0,0.0,3.0,US,1644030434.0,1030.0
Borogontsy,62.6683,131.1683,-26.59,95.0,96.0,2.44,RU,1644030436.0,1030.0
Flinders,-34.5833,150.8552,72.57,66.0,62.0,8.99,AU,1644030437.0,1015.0
Saint-Prosper,46.2117,-70.4811,6.35,95.0,100.0,6.4,CA,1644030439.0,1020.0
Kloulklubed,7.0419,134.2556,84.7,81.0,33.0,18.05,PW,1644030440.0,1011.0
Bakchar,57.0186,82.0711,17.64,81.0,100.0,10.71,RU,1644030441.0,1028.0
Praia da Vitória,38.7333,-27.0667,57.76,93.0,93.0,14.14,PT,1644030443.0,1030.0
Bamako,12.65,-8.0,68.41,22.0,0.0,5.75,ML,1644030436.0,1014.0
Ballinrobe,53.6333,-9.2333,46.36,76.0,100.0,18.97,IE,1644030445.0,1017.0
Ayan,56.45,138.1667,-0.89,66.0,52.0,14.16,RU,1644030447.0,1013.0
Thenzawl,23.3167,92.75,58.24,99.0,100.0,2.93,IN,1644030448.0,1015.0
Yumen,40.2833,97.2,17.17,33.0,100.0,16.67,CN,1644030444.0,1037.0
Kupang,-10.1667,123.5833,83.88,74.0,27.0,9.57,ID,1644030450.0,1007.0
gardan diwal,,,,,,,,,
Chapais,49.7834,-74.8492,-10.08,95.0,100.0,3.36,CA,1644030234.0,1027.0
yetholm,,,,,,,,,
Mount Darwin,-16.7725,31.5838,64.81,96.0,100.0,0.49,ZW,1644030456.0,1012.0
Arshan',46.2732,44.22,30.45,92.0,100.0,8.95,RU,1644030457.0,1009.0
Barabash,43.2,131.4833,10.08,40.0,11.0,10.38,RU,1644030458.0,1018.0
Vinh,18.6667,105.6667,59.9,76.0,100.0,4.59,VN,1644030460.0,1024.0
Leningradskiy,69.3833,178.4167,-17.7,93.0,52.0,7.67,RU,1644030461.0,1025.0
Samsun Province,41.25,36.3333,34.56,87.0,75.0,5.75,TR,1644030463.0,1021.0
Vila Franca do Campo,37.7167,-25.4333,59.2,78.0,100.0,8.59,PT,1644030464.0,1028.0
Kjøllefjord,70.9457,27.3465,18.36,84.0,100.0,30.15,NO,1644030465.0,988.0
Luyang,27.6239,110.0989,45.7,62.0,18.0,3.6,CN,1644030467.0,1030.0
Nyimba,-14.5566,30.8149,66.31,98.0,100.0,1.48,ZM,1644030468.0,1012.0
Kitimat,54.0524,-128.6534,42.91,48.0,100.0,1.99,CA,1644030173.0,1016.0
Mian Channu,30.44,72.3543,49.33,66.0,0.0,5.06,PK,1644030471.0,1014.0
Consuegra,39.4625,-3.608,45.86,64.0,100.0,3.31,ES,1644030472.0,1023.0
Conway,35.0887,-92.4421,29.75,86.0,75.0,5.75,US,1644030322.0,1035.0
Krasnoarmiys'k,48.282,37.1758,12.13,97.0,91.0,6.91,UA,1644030475.0,1017.0
Paraná,-31.732,-60.5238,74.71,82.0,64.0,6.67,AR,1644030477.0,1008.0
Pankovka,58.5,31.1999,11.03,94.0,99.0,11.9,RU,1644030478.0,1009.0
Erbil,36.1926,44.0106,42.62,100.0,40.0,3.44,IQ,1644030479.0,1011.0
Shingū,33.7333,135.9833,39.9,45.0,11.0,16.8,JP,1644030481.0,1016.0
Banjar,-8.19,114.9675,83.91,68.0,50.0,4.29,ID,1644030482.0,1009.0
Honiara,-9.4333,159.95,86.09,71.0,100.0,7.78,SB,1644030484.0,1006.0
Zhigansk,66.7697,123.3711,-27.02,98.0,99.0,4.99,RU,1644030485.0,1029.0
Port Macquarie,-31.4333,152.9167,74.89,58.0,91.0,14.41,AU,1644030444.0,1015.0
Todos Santos,23.45,-110.2167,64.0,66.0,0.0,5.12,MX,1644030488.0,1018.0
Winnemucca,40.973,-117.7357,35.65,48.0,0.0,5.75,US,1644030242.0,1031.0
Ati,13.2154,18.3353,62.35,20.0,12.0,16.4,TD,1644030491.0,1015.0
Viedma,-40.8135,-62.9967,63.28,68.0,100.0,21.59,AR,1644030404.0,1015.0
Beringovskiy,63.05,179.3167,-8.21,87.0,58.0,12.19,RU,1644030493.0,1010.0
Marrakesh,31.6315,-8.0083,57.27,47.0,20.0,5.75,MA,1644030495.0,1022.0
Srīvardhan,18.0333,73.0167,67.66,61.0,19.0,3.74,IN,1644030496.0,1012.0
Ossora,59.2353,163.0719,10.31,78.0,100.0,6.55,RU,1644030498.0,1003.0
dubenskiy,,,,,,,,,
Muskogee,35.5834,-95.3336,24.21,50.0,0.0,5.75,US,1644030478.0,1036.0
Fosforitnyy,55.3261,38.9,5.32,100.0,89.0,5.26,RU,1644030502.0,1016.0
Izazi,-7.2,35.7333,66.87,96.0,100.0,2.3,TZ,1644030503.0,1014.0
Çanakkale Province,40.0833,26.8333,25.38,81.0,4.0,2.62,TR,1644030505.0,1021.0
Taoudenni,22.6783,-3.9836,63.3,15.0,24.0,9.44,ML,1644030506.0,1019.0
Tolbazy,54.0241,55.8825,27.36,88.0,100.0,4.09,RU,1644030508.0,1010.0
Eureka,40.8021,-124.1637,46.31,86.0,100.0,5.73,US,1644030509.0,1031.0
azimur,,,,,,,,,
Laguna,38.421,-121.4238,52.12,61.0,0.0,3.44,US,1644030512.0,1029.0
Verāval,20.9,70.3667,65.95,59.0,33.0,1.5,IN,1644030513.0,1012.0
Baymak,52.5933,58.3225,13.06,99.0,100.0,5.26,RU,1644030515.0,1015.0
Anamur,36.0751,32.8369,42.82,54.0,0.0,6.26,TR,1644030516.0,1016.0
Jacala,21.0167,-99.1833,32.58,91.0,99.0,2.98,MX,1644030518.0,1035.0
Sittwe,20.15,92.9,72.99,62.0,15.0,2.53,MM,1644030519.0,1014.0
Myre,69.1036,15.9492,26.55,72.0,99.0,20.67,NO,1644030521.0,974.0
Kolosovka,56.4678,73.611,18.09,82.0,100.0,8.48,RU,1644030522.0,1027.0
Atambua,-9.1061,124.8925,82.04,70.0,92.0,5.35,ID,1644030524.0,1008.0
mullaitivu,,,,,,,,,
Guacamayas,18.0167,-102.2167,71.49,80.0,4.0,1.43,MX,1644030526.0,1017.0
Ust'-Ilimsk,58.0006,102.6619,13.84,94.0,100.0,8.39,RU,1644030528.0,1031.0
Broken Hill,-31.95,141.4333,80.62,29.0,29.0,14.25,AU,1644030529.0,1015.0
Kavaratti,10.5669,72.642,77.68,59.0,82.0,4.74,IN,1644030531.0,1012.0
Sosnogorsk,63.6023,53.8817,-10.91,100.0,91.0,0.85,RU,1644030532.0,1021.0
temaraia,,,,,,,,,
Urusha,54.05,122.9,9.93,57.0,100.0,8.75,RU,1644030535.0,1022.0
Manuk Mangkaw,4.8,119.85,80.33,80.0,100.0,15.19,PH,1644030536.0,1010.0
Tiznit Province,29.5833,-9.5,61.39,33.0,100.0,5.39,MA,1644030538.0,1021.0
Alyangula,-13.8483,136.4192,78.67,89.0,40.0,9.22,AU,1644030539.0,1007.0
Brae,60.3964,-1.353,39.11,66.0,100.0,24.63,GB,1644030458.0,994.0
asayita,,,,,,,,,
Ixtapa,20.7,-105.2,72.63,73.0,40.0,3.44,MX,1644030381.0,1017.0
Huasahuasi,-11.3167,-75.6167,42.3,93.0,98.0,1.36,PE,1644030544.0,1019.0
Pinos,22.3,-101.5667,36.59,69.0,90.0,5.73,MX,1644030546.0,1022.0
Beloha,-25.1667,45.05,74.25,87.0,34.0,13.82,MG,1644030298.0,1008.0
Sokoni,-6.4333,39.55,75.85,87.0,100.0,17.76,TZ,1644030549.0,1010.0
Brekstad,63.687,9.6654,35.2,80.0,40.0,39.12,NO,1644030550.0,976.0
Gizo Government Station,-8.103,156.8419,86.11,71.0,100.0,13.56,SB,1644030530.0,1005.0
Kovdor,67.5662,30.4758,14.94,89.0,100.0,16.8,RU,1644030553.0,993.0
Presidencia Roque Sáenz Peña,-26.7852,-60.4388,72.09,97.0,100.0,5.3,AR,1644030554.0,1008.0
Palm Coast,29.585,-81.2078,70.63,72.0,75.0,1.99,US,1644030339.0,1020.0
